$GPRMC,235951.262,V,,,,,0.00,0.00,050180,,,N*4E
$GPRMC,235953.262,V,,,,,0.00,0.00,050180,,,N*4C
$GPRMC,235954.262,V,,,,,0.00,0.00,050180,,,N*4B
$GPRMC,235955.035,V,,,,,0.00,0.00,050180,,,N*4A
$GPRMC,235956.035,V,,,,,0.00,0.00,050180,,,N*49
$GPRMC,210933.089,V,,,,,0.00,0.00,070180,,,N*48
$GPRMC,210934.089,V,,,,,0.00,0.00,070180,,,N*4F
$GPRMC,210935.089,V,,,,,0.00,0.00,070180,,,N*4E
$GPRMC,210936.089,V,,,,,0.00,0.00,070180,,,N*4D
$GPRMC,210937.089,V,,,,,0.00,0.00,070180,,,N*4C
$GPRMC,210938.089,V,,,,,0.00,0.00,070180,,,N*43
$GPRMC,210939.089,V,,,,,0.00,0.00,070180,,,N*42
$GPRMC,210940.089,V,,,,,0.00,0.00,070180,,,N*4C
$GPRMC,210941.089,V,,,,,0.00,0.00,070180,,,N*4D
$GPRMC,210942.089,V,,,,,0.00,0.00,070180,,,N*4E
$GPRMC,210943.089,V,,,,,0.00,0.00,070180,,,N*4F
$GPRMC,210943.309,V,,,,,0.00,0.00,070180,,,N*44
$GPRMC,210944.309,V,,,,,0.00,0.00,070180,,,N*43
$GPRMC,210945.309,V,,,,,0.00,0.00,070180,,,N*42
$GPRMC,210946.309,V,,,,,0.00,0.00,070180,,,N*41
$GPRMC,210947.309,V,,,,,0.00,0.00,070180,,,N*40
$GPRMC,210948.309,V,,,,,0.00,0.00,070180,,,N*4F
$GPRMC,210949.087,V,,,,,0.00,0.00,070180,,,N*4B
$GPRMC,210949.307,V,,,,,0.00,0.00,070180,,,N*40
$GPRMC,210950.307,V,,,,,0.00,0.00,070180,,,N*48
$GPRMC,210951.307,V,,,,,0.00,0.00,070180,,,N*49
$GPRMC,210952.307,V,,,,,0.00,0.00,070180,,,N*4A
$GPRMC,210953.307,V,,,,,0.00,0.00,070180,,,N*4B
$GPRMC,210954.307,V,,,,,0.00,0.00,070180,,,N*4C
$GPRMC,210955.087,V,,,,,0.00,0.00,070180,,,N*46
$GPRMC,210955.307,V,,,,,0.00,0.00,070180,,,N*4D
$GPRMC,210956.307,V,,,,,0.00,0.00,070180,,,N*4E
$GPRMC,210957.307,V,,,,,0.00,0.00,070180,,,N*4F
$GPRMC,210958.307,V,,,,,0.00,0.00,070180,,,N*40
$GPRMC,210959.307,V,,,,,0.00,0.00,070180,,,N*41
$GPRMC,211000.307,V,,,,,0.00,0.00,070180,,,N*45
$GPRMC,211001.087,V,,,,,0.00,0.00,130420,,,N*45
$GPRMC,211001.307,V,,,,,0.00,0.00,130420,,,N*4E
$GPRMC,211002.307,V,,,,,0.00,0.00,130420,,,N*4D
$GPRMC,211003.307,V,,,,,0.00,0.00,130420,,,N*4C
$GPRMC,211004.307,V,,,,,0.00,0.00,130420,,,N*4B
$GPRMC,211005.307,V,,,,,0.00,0.00,130420,,,N*4A
$GPRMC,211006.307,V,,,,,0.00,0.00,130420,,,N*49
$GPRMC,211007.087,V,,,,,0.00,0.00,130420,,,N*43
$GPRMC,211007.307,V,,,,,0.00,0.00,130420,,,N*48
$GPRMC,211008.307,V,,,,,0.00,0.00,130420,,,N*47
$GPRMC,211009.307,V,,,,,0.00,0.00,130420,,,N*46
$GPRMC,211010.307,V,,,,,0.00,0.00,130420,,,N*4E
$GPRMC,211011.307,V,,,,,0.00,0.00,130420,,,N*4F
$GPRMC,211012.307,V,,,,,0.00,0.00,130420,,,N*4C
$GPRMC,211013.095,V,,,,,0.00,0.00,130420,,,N*45
$GPRMC,211013.315,V,,,,,0.00,0.00,130420,,,N*4E
$GPRMC,211014.315,V,,,,,0.00,0.00,130420,,,N*49
$GPRMC,211015.315,V,,,,,0.00,0.00,130420,,,N*48
$GPRMC,211016.315,V,,,,,0.00,0.00,130420,,,N*4B
$GPRMC,211017.315,V,,,,,0.00,0.00,130420,,,N*4A
$GPRMC,211018.315,V,,,,,0.00,0.00,130420,,,N*45
$GPRMC,211019.095,V,,,,,0.00,0.00,130420,,,N*4F
$GPRMC,211019.315,V,,,,,0.00,0.00,130420,,,N*44
$GPRMC,211020.315,V,,,,,0.00,0.00,130420,,,N*4E
$GPRMC,211021.315,V,,,,,0.00,0.00,130420,,,N*4F
$GPRMC,211022.315,V,,,,,0.00,0.00,130420,,,N*4C
$GPRMC,211023.315,V,,,,,0.00,0.00,130420,,,N*4D
$GPRMC,211024.315,V,,,,,0.00,0.00,130420,,,N*4A
$GPRMC,211025.095,V,,,,,0.00,0.00,130420,,,N*40
$GPRMC,211025.315,V,,,,,0.00,0.00,130420,,,N*4B
$GPRMC,211026.315,V,,,,,0.00,0.00,130420,,,N*48
$GPRMC,211027.315,V,,,,,0.00,0.00,130420,,,N*49
$GPRMC,211028.315,V,,,,,0.00,0.00,130420,,,N*46
$GPRMC,211029.315,V,,,,,0.00,0.00,130420,,,N*47
$GPRMC,211030.315,V,,,,,0.00,0.00,130420,,,N*4F
$GPRMC,211031.088,V,,,,,3.28,184.92,130420,,,N*46
$GPRMC,211031.308,V,,,,,6.22,191.92,130420,,,N*46
$GPRMC,211033.000,V,,,,,9.16,187.33,130420,,,N*4B
$GPRMC,211034.000,A,3959.8488,N,08601.1939,W,11.42,186.14,130420,,,A*46
$GPRMC,211035.000,A,3959.8385,N,08601.1971,W,15.75,191.00,130420,,,A*42
$GPRMC,211036.000,A,3959.8306,N,08601.1994,W,17.71,188.75,130420,,,A*4D
$GPRMC,211037.000,A,3959.8225,N,08601.2009,W,18.91,188.49,130420,,,A*4C
$GPRMC,211037.217,A,3959.8196,N,08601.2016,W,19.40,188.50,130420,,,A*48
$GPRMC,211039.000,A,3959.8080,N,08601.2040,W,20.50,187.79,130420,,,A*48
$GPRMC,211040.000,A,3959.8000,N,08601.2060,W,21.72,188.13,130420,,,A*4E
$GPRMC,211041.000,A,3959.7921,N,08601.2075,W,22.60,187.62,130420,,,A*47
$GPRMC,211042.000,A,3959.7814,N,08601.2103,W,24.54,188.13,130420,,,A*4B
$GPRMC,211043.000,A,3959.7711,N,08601.2127,W,25.74,188.16,130420,,,A*40
$GPRMC,211043.212,A,3959.7681,N,08601.2135,W,26.13,188.37,130420,,,A*4B
$GPRMC,211045.000,A,3959.7512,N,08601.2172,W,27.42,188.45,130420,,,A*46
$GPRMC,211046.000,A,3959.7407,N,08601.2188,W,28.57,187.60,130420,,,A*46
$GPRMC,211047.000,A,3959.7286,N,08601.2217,W,29.90,188.41,130420,,,A*4B
$GPRMC,211048.000,A,3959.7160,N,08601.2241,W,31.19,187.90,130420,,,A*47
$GPRMC,211049.000,A,3959.7037,N,08601.2265,W,32.43,188.08,130420,,,A*41
$GPRMC,211049.212,A,3959.6987,N,08601.2280,W,33.24,188.50,130420,,,A*45
$GPRMC,211051.000,A,3959.6799,N,08601.2319,W,33.91,188.88,130420,,,A*46
$GPRMC,211052.000,A,3959.6670,N,08601.2358,W,34.90,190.08,130420,,,A*41
$GPRMC,211053.000,A,3959.6542,N,08601.2388,W,35.94,190.13,130420,,,A*40
$GPRMC,211054.000,A,3959.6408,N,08601.2422,W,36.96,190.50,130420,,,A*49
$GPRMC,211055.000,A,3959.6269,N,08601.2465,W,38.45,191.63,130420,,,A*4B
$GPRMC,211055.209,A,3959.6232,N,08601.2477,W,38.98,192.48,130420,,,A*47
$GPRMC,211057.000,A,3959.6018,N,08601.2539,W,43.51,193.31,130420,,,A*49
$GPRMC,211058.000,A,3959.5886,N,08601.2579,W,45.30,194.13,130420,,,A*48
$GPRMC,211059.000,A,3959.5753,N,08601.2623,W,45.55,194.87,130420,,,A*4C
$GPRMC,211100.000,A,3959.5627,N,08601.2667,W,45.28,196.39,130420,,,A*4E
$GPRMC,211101.000,A,3959.5492,N,08601.2721,W,45.50,197.38,130420,,,A*4F
$GPRMC,211101.208,A,3959.5461,N,08601.2731,W,45.54,197.20,130420,,,A*45
$GPRMC,211103.000,A,3959.5239,N,08601.2816,W,45.32,196.66,130420,,,A*4F
$GPRMC,211104.000,A,3959.5113,N,08601.2860,W,45.79,196.37,130420,,,A*49
$GPRMC,211105.000,A,3959.4991,N,08601.2907,W,45.16,197.40,130420,,,A*43
$GPRMC,211106.000,A,3959.4862,N,08601.2951,W,45.11,196.26,130420,,,A*48
$GPRMC,211107.000,A,3959.4741,N,08601.2998,W,44.47,197.78,130420,,,A*4A
$GPRMC,211107.208,A,3959.4714,N,08601.3009,W,44.41,198.40,130420,,,A*42
$GPRMC,211109.000,A,3959.4495,N,08601.3100,W,45.00,198.68,130420,,,A*4A
$GPRMC,211110.000,A,3959.4363,N,08601.3150,W,45.72,198.54,130420,,,A*43
$GPRMC,211111.000,A,3959.4236,N,08601.3201,W,44.90,199.04,130420,,,A*4D
$GPRMC,211112.000,A,3959.4109,N,08601.3251,W,45.07,198.54,130420,,,A*4F
$GPRMC,211113.000,A,3959.3981,N,08601.3301,W,45.04,198.55,130420,,,A*47
$GPRMC,211113.208,A,3959.3948,N,08601.3311,W,45.52,198.19,130420,,,A*42
$GPRMC,211115.000,A,3959.3723,N,08601.3405,W,45.72,199.11,130420,,,A*44
$GPRMC,211116.000,A,3959.3594,N,08601.3459,W,46.38,199.69,130420,,,A*42
$GPRMC,211117.000,A,3959.3468,N,08601.3517,W,46.20,200.45,130420,,,A*4E
$GPRMC,211118.000,A,3959.3332,N,08601.3575,W,48.59,200.55,130420,,,A*4C
$GPRMC,211119.000,A,3959.3191,N,08601.3632,W,49.71,198.25,130420,,,A*48
$GPRMC,211119.208,A,3959.3159,N,08601.3643,W,49.16,198.69,130420,,,A*49
$GPRMC,211121.000,A,3959.2920,N,08601.3747,W,50.41,199.07,130420,,,A*49
$GPRMC,211122.000,A,3959.2795,N,08601.3808,W,48.49,199.76,130420,,,A*49
$GPRMC,211123.000,A,3959.2660,N,08601.3867,W,49.40,199.94,130420,,,A*4E
$GPRMC,211124.000,A,3959.2526,N,08601.3926,W,49.75,199.48,130420,,,A*4B
$GPRMC,211125.000,A,3959.2395,N,08601.3988,W,50.20,200.08,130420,,,A*4F
$GPRMC,211125.208,V,,,,,50.22,200.87,130420,,,N*7F
$GPRMC,211127.000,V,,,,,49.93,200.10,130420,,,N*7B
$GPRMC,211128.000,V,,,,,50.23,200.33,130420,,,N*76
$GPRMC,211129.000,V,,,,,50.17,201.02,130420,,,N*73
$GPRMC,211130.000,V,,,,,50.53,200.60,130420,,,N*7E
$GPRMC,211131.000,V,,,,,50.07,200.72,130420,,,N*7D
$GPRMC,211132.000,V,,,,,50.09,201.65,130420,,,N*77
$GPRMC,211133.000,V,,,,,49.46,201.52,130420,,,N*71
$GPRMC,211134.000,V,,,,,47.51,201.66,130420,,,N*79
$GPRMC,211135.000,V,,,,,44.81,202.51,130420,,,N*71
$GPRMC,211136.000,V,,,,,42.48,202.44,130420,,,N*75
$GPRMC,211137.000,V,,,,,41.96,202.67,130420,,,N*75
$GPRMC,211138.000,V,,,,,41.65,202.67,130420,,,N*76
$GPRMC,211139.000,V,,,,,41.39,202.77,130420,,,N*7F
$GPRMC,211140.000,V,,,,,40.85,203.22,130420,,,N*76
$GPRMC,211141.000,V,,,,,39.72,203.26,130420,,,N*75
$GPRMC,211142.000,V,,,,,39.33,204.58,130420,,,N*7D
$GPRMC,211143.000,V,,,,,38.63,205.23,130420,,,N*75
$GPRMC,211144.000,V,,,,,37.22,204.50,130420,,,N*7D
$GPRMC,211145.000,V,,,,,36.87,205.15,130420,,,N*72
$GPRMC,211146.000,V,,,,,36.30,204.47,130420,,,N*7B
$GPRMC,211147.000,V,,,,,36.94,205.57,130420,,,N*74
$GPRMC,211148.000,V,,,,,36.92,204.87,130420,,,N*71
$GPRMC,211149.000,V,,,,,37.07,204.78,130420,,,N*7D
$GPRMC,211150.000,A,3958.9701,N,08601.5509,W,37.74,204.95,130420,,,A*4D
$GPRMC,211151.000,A,3958.9605,N,08601.5570,W,38.34,206.04,130420,,,A*46
$GPRMC,211152.000,A,3958.9509,N,08601.5631,W,38.38,205.75,130420,,,A*45
$GPRMC,211153.000,A,3958.9413,N,08601.5693,W,37.51,206.15,130420,,,A*43
$GPRMC,211154.000,A,3958.9318,N,08601.5756,W,37.81,206.92,130420,,,A*42
$GPRMC,211155.000,A,3958.9224,N,08601.5819,W,37.80,206.68,130420,,,A*4D
$GPRMC,211156.000,A,3958.9128,N,08601.5882,W,38.30,207.45,130420,,,A*49
$GPRMC,211157.000,A,3958.9034,N,08601.5949,W,38.37,208.64,130420,,,A*49
$GPRMC,211158.000,A,3958.8939,N,08601.6016,W,38.34,208.63,130420,,,A*47
$GPRMC,211159.000,A,3958.8845,N,08601.6082,W,37.80,208.21,130420,,,A*47
$GPRMC,211200.000,A,3958.8753,N,08601.6149,W,37.36,209.69,130420,,,A*46
$GPRMC,211201.000,A,3958.8664,N,08601.6213,W,36.21,208.80,130420,,,A*4F
$GPRMC,211202.000,A,3958.8577,N,08601.6274,W,36.61,208.83,130420,,,A*4B
$GPRMC,211203.000,A,3958.8491,N,08601.6335,W,34.96,208.15,130420,,,A*42
$GPRMC,211204.000,A,3958.8404,N,08601.6396,W,34.64,207.96,130420,,,A*49
$GPRMC,211205.000,A,3958.8319,N,08601.6455,W,34.57,208.04,130420,,,A*4F
$GPRMC,211206.000,A,3958.8234,N,08601.6515,W,34.17,208.36,130420,,,A*42
$GPRMC,211207.000,A,3958.8152,N,08601.6574,W,32.95,209.54,130420,,,A*4E
$GPRMC,211208.000,A,3958.8074,N,08601.6633,W,31.20,211.07,130420,,,A*46
$GPRMC,211209.000,A,3958.8002,N,08601.6690,W,29.88,212.73,130420,,,A*44
$GPRMC,211210.000,A,3958.7933,N,08601.6748,W,29.00,211.95,130420,,,A*47
$GPRMC,211211.000,A,3958.7865,N,08601.6800,W,28.04,210.47,130420,,,A*4C
$GPRMC,211212.000,A,3958.7799,N,08601.6850,W,26.68,209.54,130420,,,A*48
$GPRMC,211213.000,A,3958.7737,N,08601.6896,W,24.42,209.02,130420,,,A*4E
$GPRMC,211214.000,A,3958.7681,N,08601.6936,W,21.70,208.62,130420,,,A*4D
$GPRMC,211215.000,A,3958.7631,N,08601.6971,W,18.96,208.35,130420,,,A*44
$GPRMC,211216.000,A,3958.7588,N,08601.7000,W,16.63,207.99,130420,,,A*45
$GPRMC,211217.000,A,3958.7549,N,08601.7027,W,15.83,207.91,130420,,,A*49
$GPRMC,211218.000,A,3958.7510,N,08601.7054,W,16.13,208.12,130420,,,A*40
$GPRMC,211219.000,A,3958.7467,N,08601.7083,W,18.49,207.61,130420,,,A*40
$GPRMC,211220.000,A,3958.7418,N,08601.7116,W,21.30,207.01,130420,,,A*4D
$GPRMC,211221.000,A,3958.7362,N,08601.7154,W,24.13,207.37,130420,,,A*41
$GPRMC,211222.000,A,3958.7299,N,08601.7196,W,26.48,207.77,130420,,,A*41
$GPRMC,211223.000,A,3958.7231,N,08601.7243,W,28.86,207.58,130420,,,A*48
$GPRMC,211224.000,A,3958.7158,N,08601.7294,W,30.88,208.28,130420,,,A*46
$GPRMC,211225.000,A,3958.7081,N,08601.7351,W,32.17,209.75,130420,,,A*47
$GPRMC,211226.000,A,3958.6970,N,08601.7444,W,32.20,209.65,130420,,,A*44
$GPRMC,211227.000,A,3958.6866,N,08601.7525,W,31.93,208.36,130420,,,A*49
$GPRMC,211228.000,A,3958.6787,N,08601.7580,W,31.99,208.57,130420,,,A*44
$GPRMC,211229.000,A,3958.6692,N,08601.7652,W,32.00,208.94,130420,,,A*40
$GPRMC,211230.000,A,3958.6602,N,08601.7720,W,32.20,209.22,130420,,,A*4B
$GPRMC,211231.000,A,3958.6514,N,08601.7785,W,32.69,209.05,130420,,,A*49
$GPRMC,211232.000,A,3958.6423,N,08601.7852,W,33.82,207.90,130420,,,A*4C
$GPRMC,211233.000,A,3958.6332,N,08601.7918,W,33.39,207.24,130420,,,A*4A
$GPRMC,211234.000,A,3958.6241,N,08601.7981,W,35.69,208.61,130420,,,A*45
$GPRMC,211235.000,A,3958.6149,N,08601.8048,W,36.23,208.92,130420,,,A*4D
$GPRMC,211236.000,A,3958.6058,N,08601.8114,W,36.21,209.67,130420,,,A*4E
$GPRMC,211237.000,A,3958.5969,N,08601.8182,W,36.64,210.71,130420,,,A*46
$GPRMC,211238.000,A,3958.5879,N,08601.8250,W,36.65,211.31,130420,,,A*41
$GPRMC,211239.000,A,3958.5790,N,08601.8318,W,36.88,211.98,130420,,,A*45
$GPRMC,211240.000,A,3958.5702,N,08601.8388,W,36.83,213.08,130420,,,A*49
$GPRMC,211241.000,A,3958.5616,N,08601.8460,W,36.39,213.90,130420,,,A*4D
$GPRMC,211242.000,A,3958.5531,N,08601.8535,W,36.57,215.33,130420,,,A*4E
$GPRMC,211243.000,A,3958.5449,N,08601.8615,W,35.98,216.97,130420,,,A*4D
$GPRMC,211244.000,A,3958.5370,N,08601.8694,W,35.62,217.60,130420,,,A*42
$GPRMC,211245.000,A,3958.5292,N,08601.8773,W,35.07,217.78,130420,,,A*4C
$GPRMC,211246.000,A,3958.5219,N,08601.8854,W,34.61,219.21,130420,,,A*45
$GPRMC,211247.000,A,3958.5145,N,08601.8935,W,34.60,221.26,130420,,,A*45
$GPRMC,211248.000,A,3958.5073,N,08601.9019,W,34.78,222.89,130420,,,A*47
$GPRMC,211249.000,A,3958.5003,N,08601.9104,W,35.00,223.84,130420,,,A*4E
$GPRMC,211250.000,A,3958.4933,N,08601.9192,W,35.22,224.57,130420,,,A*4B
$GPRMC,211251.000,A,3958.4863,N,08601.9282,W,35.49,224.95,130420,,,A*4F
$GPRMC,211252.000,A,3958.4793,N,08601.9372,W,35.74,225.05,130420,,,A*44
$GPRMC,211253.000,A,3958.4723,N,08601.9464,W,35.91,225.12,130420,,,A*43
$GPRMC,211254.000,A,3958.4652,N,08601.9556,W,35.73,225.23,130420,,,A*4D
$GPRMC,211255.000,A,3958.4582,N,08601.9647,W,36.17,225.09,130420,,,A*48
$GPRMC,211256.000,A,3958.4510,N,08601.9738,W,35.89,223.84,130420,,,A*4E
$GPRMC,211257.000,A,3958.4439,N,08601.9827,W,35.95,223.88,130420,,,A*45
$GPRMC,211258.000,A,3958.4368,N,08601.9918,W,35.97,224.83,130420,,,A*4A
$GPRMC,211259.000,A,3958.4297,N,08602.0009,W,35.93,224.65,130420,,,A*45
$GPRMC,211300.000,A,3958.4225,N,08602.0099,W,36.15,222.99,130420,,,A*40
$GPRMC,211301.000,A,3958.4150,N,08602.0186,W,36.13,220.49,130420,,,A*46
$GPRMC,211302.000,A,3958.4072,N,08602.0267,W,36.16,218.33,130420,,,A*4B
$GPRMC,211303.000,A,3958.3993,N,08602.0346,W,35.45,217.37,130420,,,A*47
$GPRMC,211304.000,A,3958.3914,N,08602.0422,W,35.15,215.39,130420,,,A*43
$GPRMC,211305.000,A,3958.3833,N,08602.0492,W,35.23,213.19,130420,,,A*4C
$GPRMC,211306.000,A,3958.3748,N,08602.0561,W,35.59,211.82,130420,,,A*4C
$GPRMC,211307.000,A,3958.3662,N,08602.0629,W,35.25,210.81,130420,,,A*42
$GPRMC,211308.000,A,3958.3574,N,08602.0695,W,36.43,210.02,130420,,,A*46
$GPRMC,211309.000,A,3958.3486,N,08602.0762,W,36.64,209.86,130420,,,A*43
$GPRMC,211310.000,A,3958.3395,N,08602.0825,W,36.59,206.96,130420,,,A*42
$GPRMC,211311.000,A,3958.3304,N,08602.0880,W,36.74,204.56,130420,,,A*45
$GPRMC,211312.000,A,3958.3212,N,08602.0931,W,36.83,203.37,130420,,,A*43
$GPRMC,211313.000,A,3958.3121,N,08602.0979,W,35.05,202.02,130420,,,A*47
$GPRMC,211314.000,A,3958.3029,N,08602.1020,W,34.74,198.58,130420,,,A*45
$GPRMC,211315.000,A,3958.2938,N,08602.1058,W,33.97,197.58,130420,,,A*46
$GPRMC,211316.000,A,3958.2847,N,08602.1090,W,33.41,196.37,130420,,,A*4B
$GPRMC,211317.000,A,3958.2758,N,08602.1124,W,33.46,195.82,130420,,,A*4F
$GPRMC,211318.000,A,3958.2666,N,08602.1155,W,33.00,195.35,130420,,,A*44
$GPRMC,211319.000,A,3958.2575,N,08602.1188,W,32.97,195.36,130420,,,A*48
$GPRMC,211320.000,A,3958.2482,N,08602.1220,W,34.78,194.60,130420,,,A*4F
$GPRMC,211321.000,A,3958.2389,N,08602.1252,W,34.53,194.16,130420,,,A*4F
$GPRMC,211322.000,A,3958.2296,N,08602.1281,W,34.24,192.93,130420,,,A*46
$GPRMC,211323.000,A,3958.2205,N,08602.1309,W,33.64,192.82,130420,,,A*4F
$GPRMC,211324.000,A,3958.2115,N,08602.1338,W,33.32,194.37,130420,,,A*43
$GPRMC,211325.000,A,3958.2025,N,08602.1370,W,33.74,194.50,130420,,,A*4F
$GPRMC,211326.000,A,3958.1933,N,08602.1401,W,33.39,194.56,130420,,,A*4F
$GPRMC,211327.000,A,3958.1843,N,08602.1432,W,33.79,194.43,130420,,,A*48
$GPRMC,211328.000,A,3958.1752,N,08602.1464,W,33.84,194.05,130420,,,A*4B
$GPRMC,211329.000,A,3958.1663,N,08602.1496,W,33.73,195.91,130420,,,A*40
$GPRMC,211330.000,A,3958.1577,N,08602.1530,W,32.37,196.62,130420,,,A*4D
$GPRMC,211331.000,A,3958.1491,N,08602.1563,W,32.93,196.86,130420,,,A*47
$GPRMC,211332.000,A,3958.1407,N,08602.1593,W,32.71,194.37,130420,,,A*40
$GPRMC,211333.000,A,3958.1323,N,08602.1621,W,31.64,193.62,130420,,,A*4A
$GPRMC,211334.000,A,3958.1238,N,08602.1648,W,31.61,193.94,130420,,,A*45
$GPRMC,211335.000,A,3958.1153,N,08602.1677,W,32.27,194.74,130420,,,A*4E
$GPRMC,211336.000,A,3958.1066,N,08602.1706,W,32.33,193.07,130420,,,A*4B
$GPRMC,211337.000,A,3958.0979,N,08602.1733,W,32.55,193.61,130420,,,A*4A
$GPRMC,211338.000,A,3958.0891,N,08602.1762,W,32.74,194.17,130420,,,A*43
$GPRMC,211339.000,A,3958.0803,N,08602.1792,W,32.71,195.40,130420,,,A*40
$GPRMC,211340.000,A,3958.0715,N,08602.1822,W,32.75,194.98,130420,,,A*42
$GPRMC,211341.000,A,3958.0628,N,08602.1853,W,32.77,194.81,130420,,,A*40
$GPRMC,211342.000,A,3958.0543,N,08602.1881,W,32.72,194.55,130420,,,A*4E
$GPRMC,211343.000,A,3958.0459,N,08602.1909,W,31.56,193.84,130420,,,A*4A
$GPRMC,211344.000,A,3958.0373,N,08602.1936,W,31.59,193.47,130420,,,A*4E
$GPRMC,211345.000,A,3958.0287,N,08602.1963,W,31.71,193.16,130420,,,A*4B
$GPRMC,211346.000,A,3958.0198,N,08602.1991,W,33.03,193.54,130420,,,A*49
$GPRMC,211347.000,A,3958.0109,N,08602.2020,W,33.57,194.03,130420,,,A*44
$GPRMC,211348.000,A,3958.0016,N,08602.2050,W,34.04,194.42,130420,,,A*47
$GPRMC,211349.000,A,3957.9923,N,08602.2080,W,34.06,193.94,130420,,,A*4C
$GPRMC,211350.000,A,3957.9829,N,08602.2109,W,34.03,193.66,130420,,,A*47
$GPRMC,211351.000,A,3957.9737,N,08602.2137,W,34.18,193.40,130420,,,A*45
$GPRMC,211352.000,A,3957.9644,N,08602.2167,W,34.43,193.71,130420,,,A*4A
$GPRMC,211353.000,A,3957.9549,N,08602.2196,W,34.41,193.73,130420,,,A*4B
$GPRMC,211354.000,A,3957.9455,N,08602.2225,W,34.59,193.48,130420,,,A*4A
$GPRMC,211355.000,A,3957.9361,N,08602.2255,W,34.77,195.11,130420,,,A*4A
$GPRMC,211356.000,A,3957.9266,N,08602.2286,W,35.48,194.84,130420,,,A*41
$GPRMC,211357.000,A,3957.9170,N,08602.2319,W,35.95,194.57,130420,,,A*4D
$GPRMC,211358.000,A,3957.9073,N,08602.2352,W,35.97,194.70,130420,,,A*48
$GPRMC,211359.000,A,3957.8977,N,08602.2386,W,35.99,195.59,130420,,,A*48
$GPRMC,211400.000,A,3957.8882,N,08602.2422,W,35.95,196.26,130420,,,A*46
$GPRMC,211401.000,A,3957.8787,N,08602.2458,W,35.31,196.43,130420,,,A*4D
$GPRMC,211402.000,A,3957.8695,N,08602.2494,W,34.42,196.80,130420,,,A*46
$GPRMC,211403.000,A,3957.8605,N,08602.2529,W,33.67,195.99,130420,,,A*42
$GPRMC,211404.000,A,3957.8516,N,08602.2563,W,32.97,195.58,130420,,,A*49
$GPRMC,211405.000,A,3957.8430,N,08602.2595,W,32.36,194.94,130420,,,A*4E
$GPRMC,211406.000,A,3957.8345,N,08602.2626,W,31.98,195.21,130420,,,A*4B
$GPRMC,211407.000,A,3957.8260,N,08602.2656,W,31.33,194.73,130420,,,A*4C
$GPRMC,211408.000,A,3957.8177,N,08602.2686,W,31.05,194.47,130420,,,A*49
$GPRMC,211409.000,A,3957.8096,N,08602.2715,W,30.33,194.53,130420,,,A*4C
$GPRMC,211410.000,A,3957.8016,N,08602.2743,W,29.76,194.51,130420,,,A*44
$GPRMC,211411.000,A,3957.7938,N,08602.2771,W,29.16,194.57,130420,,,A*4E
$GPRMC,211412.000,A,3957.7863,N,08602.2797,W,26.76,193.68,130420,,,A*48
$GPRMC,211413.000,A,3957.7797,N,08602.2818,W,23.21,193.17,130420,,,A*4A
$GPRMC,211414.000,A,3957.7742,N,08602.2836,W,19.70,193.19,130420,,,A*4A
$GPRMC,211415.000,A,3957.7696,N,08602.2850,W,16.47,193.12,130420,,,A*43
$GPRMC,211416.000,A,3957.7665,N,08602.2862,W,11.78,198.77,130420,,,A*4E
$GPRMC,211417.000,A,3957.7642,N,08602.2880,W,10.01,218.19,130420,,,A*4A
$GPRMC,211418.000,A,3957.7629,N,08602.2909,W,9.68,248.08,130420,,,A*7A
$GPRMC,211419.000,A,3957.7627,N,08602.2947,W,10.62,272.07,130420,,,A*4B
$GPRMC,211420.000,A,3957.7635,N,08602.2994,W,13.66,283.67,130420,,,A*43
$GPRMC,211421.000,A,3957.7646,N,08602.3047,W,15.22,282.50,130420,,,A*43
$GPRMC,211422.000,A,3957.7655,N,08602.3102,W,15.52,282.11,130420,,,A*40
$GPRMC,211423.000,A,3957.7664,N,08602.3156,W,14.93,278.76,130420,,,A*4A
$GPRMC,211424.000,A,3957.7669,N,08602.3209,W,14.72,275.52,130420,,,A*4D
$GPRMC,211425.000,A,3957.7674,N,08602.3258,W,12.95,273.70,130420,,,A*4D
$GPRMC,211426.000,A,3957.7677,N,08602.3299,W,10.77,277.50,130420,,,A*48
$GPRMC,211427.000,A,3957.7684,N,08602.3334,W,9.71,287.08,130420,,,A*7F
$GPRMC,211428.000,A,3957.7696,N,08602.3352,W,7.50,319.97,130420,,,A*7E
$GPRMC,211429.000,A,3957.7715,N,08602.3361,W,7.83,349.16,130420,,,A*77
$GPRMC,211430.000,A,3957.7738,N,08602.3360,W,9.23,4.27,130420,,,A*7D
$GPRMC,211431.000,A,3957.7764,N,08602.3360,W,9.01,352.48,130420,,,A*7C
$GPRMC,211432.000,A,3957.7790,N,08602.3366,W,9.07,343.16,130420,,,A*7F
$GPRMC,211433.000,A,3957.7816,N,08602.3373,W,9.04,347.25,130420,,,A*7C
$GPRMC,211434.000,A,3957.7842,N,08602.3377,W,9.02,350.60,130420,,,A*7F
$GPRMC,211435.000,A,3957.7868,N,08602.3382,W,8.55,357.66,130420,,,A*7E
$GPRMC,211436.000,A,3957.7890,N,08602.3381,W,6.57,1.74,130420,,,A*76
$GPRMC,211437.000,A,3957.7905,N,08602.3380,W,4.44,1.03,130420,,,A*7B
$GPRMC,211438.000,A,3957.7915,N,08602.3380,W,2.24,355.90,130420,,,A*7D
$GPRMC,211439.000,A,3957.7920,N,08602.3379,W,0.12,355.90,130420,,,A*7B
$GPRMC,211440.000,A,3957.7922,N,08602.3379,W,0.05,355.90,130420,,,A*71
$GPRMC,211441.000,A,3957.7923,N,08602.3379,W,0.00,355.90,130420,,,A*74
$GPRMC,211442.000,A,3957.7924,N,08602.3377,W,0.00,355.90,130420,,,A*7E
$GPRMC,211443.000,A,3957.7924,N,08602.3377,W,0.00,355.90,130420,,,A*7F
$GPRMC,211444.000,A,3957.7924,N,08602.3377,W,0.00,355.90,130420,,,A*78
$GPRMC,211445.000,A,3957.7924,N,08602.3377,W,0.00,355.90,130420,,,A*79
$GPRMC,211446.000,A,3957.7925,N,08602.3377,W,0.00,355.90,130420,,,A*7B
$GPRMC,211447.000,A,3957.7925,N,08602.3377,W,0.00,355.90,130420,,,A*7A
$GPRMC,211448.000,A,3957.7925,N,08602.3377,W,0.00,355.90,130420,,,A*75
$GPRMC,211449.000,A,3957.7925,N,08602.3377,W,0.00,355.90,130420,,,A*74
$GPRMC,211450.000,A,3957.7925,N,08602.3377,W,0.00,355.90,130420,,,A*7C
$GPRMC,211451.000,A,3957.7925,N,08602.3377,W,0.00,355.90,130420,,,A*7D
$GPRMC,211452.000,A,3957.7925,N,08602.3377,W,0.00,355.90,130420,,,A*7E
$GPRMC,211453.000,A,3957.7925,N,08602.3377,W,0.00,355.90,130420,,,A*7F
$GPRMC,211454.000,A,3957.7925,N,08602.3377,W,0.00,355.90,130420,,,A*78
$GPRMC,211455.000,A,3957.7925,N,08602.3377,W,0.00,355.90,130420,,,A*79
